{
  "version": "1.0",
  "description": "ÊµÖËçâÊ©ãÈßÖÂë®Ëæ∫„ÅÆ„ÅäÂ∫ó„Å´Âü∫„Å•„ÅèË£ÖÂÇô„Çπ„Éù„Éº„É≥‰ΩçÁΩÆ",
  "transform": {
    "scale_x": 86182.93021930652,
    "scale_z": -134770.88948828366,
    "offset_x": -12047182.938515048,
    "offset_z": 4810840.913330108,
    "origin": {
      "lat": 35.6973,
      "lng": 139.7863,
      "name": "ÊµÖËçâÊ©ãÈßÖÂâç‰∫§Â∑ÆÁÇπ"
    },
    "reference_points": [
      {
        "name": "ÊµÖËçâÊ©ãÈßÖÂâç‰∫§Â∑ÆÁÇπ",
        "lat": 35.6973,
        "lng": 139.7863,
        "gameX": 10,
        "gameZ": -115.96
      },
      {
        "name": "Â∑¶Ë°õÈñÄÊ©ãÈÄö„Çä‰∫§Â∑ÆÁÇπ",
        "lat": 35.696187,
        "lng": 139.782703,
        "gameX": -300,
        "gameZ": 34.04
      }
    ]
  },
  "count": 55,
  "spawns": [
    {
      "id": "equip_5575025463",
      "shopName": "ACTEK GOLF",
      "shopNameJa": "",
      "shopCategory": "sports",
      "itemCategory": "equipment",
      "typeId": "magnet",
      "name": "Magnet",
      "nameJa": "Á£ÅÁü≥",
      "effect": "magnetism",
      "value": 0.3,
      "color": "#C0C0C0",
      "icon": "üß≤",
      "gameX": -423.63,
      "gameZ": 123.35,
      "realLat": 35.6955243,
      "realLng": 139.7812685
    },
    {
      "id": "equip_5173128813",
      "shopName": "ART",
      "shopNameJa": "",
      "shopCategory": "jewelry",
      "itemCategory": "gem",
      "typeId": "amethyst",
      "name": "Amethyst",
      "nameJa": "„Ç¢„É°„Ç∏„Çπ„Éà",
      "effect": "buffDuration",
      "value": 0.15,
      "color": "#9966CC",
      "icon": "üíé",
      "gameX": -97.54,
      "gameZ": -132.27,
      "realLat": 35.697421,
      "realLng": 139.7850522
    },
    {
      "id": "equip_7944813076",
      "shopName": "ART",
      "shopNameJa": "",
      "shopCategory": "jewelry",
      "itemCategory": "gem",
      "typeId": "aquamarine",
      "name": "Aquamarine",
      "nameJa": "„Ç¢„ÇØ„Ç¢„Éû„É™„É≥",
      "effect": "recoveryCooldown",
      "value": -0.1,
      "color": "#7FFFD4",
      "icon": "üíé",
      "gameX": -146.37,
      "gameZ": -109.21,
      "realLat": 35.6972499,
      "realLng": 139.7844856
    },
    {
      "id": "equip_5583891601",
      "shopName": "BERETTA SPORTS SHOP",
      "shopNameJa": "",
      "shopCategory": "sports",
      "itemCategory": "equipment",
      "typeId": "magnet",
      "name": "Magnet",
      "nameJa": "Á£ÅÁü≥",
      "effect": "magnetism",
      "value": 0.3,
      "color": "#C0C0C0",
      "icon": "üß≤",
      "gameX": -331.81,
      "gameZ": 14.97,
      "realLat": 35.6963285,
      "realLng": 139.7823339
    },
    {
      "id": "equip_9810202709",
      "shopName": "Best Sports",
      "shopNameJa": "",
      "shopCategory": "bicycle",
      "itemCategory": "equipment",
      "typeId": "bicycle",
      "name": "Bicycle",
      "nameJa": "Ëá™Ëª¢Ëªä",
      "effect": "groundSpeed",
      "value": 0.3,
      "color": "#FF6347",
      "icon": "üö≤",
      "gameX": -518.56,
      "gameZ": 109.69,
      "realLat": 35.6956257,
      "realLng": 139.780167
    },
    {
      "id": "equip_5648830435",
      "shopName": "Branche",
      "shopNameJa": "",
      "shopCategory": "clothes",
      "itemCategory": "equipment",
      "typeId": "hat",
      "name": "Hat",
      "nameJa": "Â∏ΩÂ≠ê",
      "effect": "defense",
      "value": 0.1,
      "color": "#DDA0DD",
      "icon": "üé©",
      "gameX": -138.34,
      "gameZ": -269.88,
      "realLat": 35.6984421,
      "realLng": 139.7845788
    },
    {
      "id": "equip_5173128816",
      "shopName": "D & L",
      "shopNameJa": "",
      "shopCategory": "clothes",
      "itemCategory": "equipment",
      "typeId": "armor",
      "name": "Armor",
      "nameJa": "Èò≤ÂÖ∑",
      "effect": "defense",
      "value": 0.2,
      "color": "#4169E1",
      "icon": "üõ°Ô∏è",
      "gameX": -118.92,
      "gameZ": -134.83,
      "realLat": 35.69744,
      "realLng": 139.7848041
    },
    {
      "id": "equip_7944867209",
      "shopName": "HARRYTOIT",
      "shopNameJa": "",
      "shopCategory": "clothes",
      "itemCategory": "equipment",
      "typeId": "hat",
      "name": "Hat",
      "nameJa": "Â∏ΩÂ≠ê",
      "effect": "defense",
      "value": 0.1,
      "color": "#DDA0DD",
      "icon": "üé©",
      "gameX": -267.73,
      "gameZ": -82.94,
      "realLat": 35.697055,
      "realLng": 139.7830774
    },
    {
      "id": "equip_5575025480",
      "shopName": "JOHN B. STETSON & GO",
      "shopNameJa": "",
      "shopCategory": "clothes",
      "itemCategory": "equipment",
      "typeId": "hat",
      "name": "Hat",
      "nameJa": "Â∏ΩÂ≠ê",
      "effect": "defense",
      "value": 0.1,
      "color": "#DDA0DD",
      "icon": "üé©",
      "gameX": -356.94,
      "gameZ": 132.75,
      "realLat": 35.6954546,
      "realLng": 139.7820423
    },
    {
      "id": "equip_5550459112",
      "shopName": "LAMB MODE",
      "shopNameJa": "",
      "shopCategory": "bag",
      "itemCategory": "equipment",
      "typeId": "bag",
      "name": "Bag",
      "nameJa": "„Éê„ÉÉ„Ç∞",
      "effect": "slotExpand",
      "value": 2,
      "color": "#8B4513",
      "icon": "üéí",
      "gameX": -269.42,
      "gameZ": -419.61,
      "realLat": 35.6995531,
      "realLng": 139.7830578
    },
    {
      "id": "equip_5573685024",
      "shopName": "LIME",
      "shopNameJa": "",
      "shopCategory": "bag",
      "itemCategory": "equipment",
      "typeId": "bag",
      "name": "Bag",
      "nameJa": "„Éê„ÉÉ„Ç∞",
      "effect": "slotExpand",
      "value": 2,
      "color": "#8B4513",
      "icon": "üéí",
      "gameX": -153.95,
      "gameZ": -434.56,
      "realLat": 35.699664,
      "realLng": 139.7843977
    },
    {
      "id": "equip_6235126986",
      "shopName": "Latief",
      "shopNameJa": "",
      "shopCategory": "jewelry",
      "itemCategory": "gem",
      "typeId": "opal",
      "name": "Opal",
      "nameJa": "„Ç™„Éë„Éº„É´",
      "effect": "magnetism",
      "value": 0.2,
      "color": "#A8C3BC",
      "icon": "üíé",
      "gameX": -80.55,
      "gameZ": -231.24,
      "realLat": 35.6981554,
      "realLng": 139.7852493
    },
    {
      "id": "equip_5581686279",
      "shopName": "MACHINE BOX",
      "shopNameJa": "",
      "shopCategory": "electronics",
      "itemCategory": "equipment",
      "typeId": "magnet",
      "name": "Magnet",
      "nameJa": "Á£ÅÁü≥",
      "effect": "magnetism",
      "value": 0.3,
      "color": "#C0C0C0",
      "icon": "üß≤",
      "gameX": -227.68,
      "gameZ": -350.38,
      "realLat": 35.6990394,
      "realLng": 139.7835421
    },
    {
      "id": "equip_4788544969",
      "shopName": "MK Plus",
      "shopNameJa": "",
      "shopCategory": "bag",
      "itemCategory": "equipment",
      "typeId": "bag",
      "name": "Bag",
      "nameJa": "„Éê„ÉÉ„Ç∞",
      "effect": "slotExpand",
      "value": 2,
      "color": "#8B4513",
      "icon": "üéí",
      "gameX": 76.91,
      "gameZ": -336.94,
      "realLat": 35.6989397,
      "realLng": 139.7870764
    },
    {
      "id": "equip_5158636813",
      "shopName": "Maria fantasia",
      "shopNameJa": "„Éû„É™„Ç¢„Éï„Ç°„É≥„Çø„Ç∏„Ç¢",
      "shopCategory": "clothes",
      "itemCategory": "equipment",
      "typeId": "hat",
      "name": "Hat",
      "nameJa": "Â∏ΩÂ≠ê",
      "effect": "defense",
      "value": 0.1,
      "color": "#DDA0DD",
      "icon": "üé©",
      "gameX": -177.53,
      "gameZ": -342.38,
      "realLat": 35.69898,
      "realLng": 139.7841241
    },
    {
      "id": "equip_5179173789",
      "shopName": "Napa",
      "shopNameJa": "",
      "shopCategory": "jewelry",
      "itemCategory": "gem",
      "typeId": "pearl",
      "name": "Pearl",
      "nameJa": "„Éë„Éº„É´",
      "effect": "defense",
      "value": 0.1,
      "color": "#FDEEF4",
      "icon": "üíé",
      "gameX": -141.99,
      "gameZ": -255.19,
      "realLat": 35.6983331,
      "realLng": 139.7845364
    },
    {
      "id": "equip_5173128815",
      "shopName": "QUEENS PART IV",
      "shopNameJa": "",
      "shopCategory": "jewelry",
      "itemCategory": "gem",
      "typeId": "sapphire",
      "name": "Sapphire",
      "nameJa": "„Çµ„Éï„Ç°„Ç§„Ç¢",
      "effect": "defense",
      "value": 0.15,
      "color": "#0F52BA",
      "icon": "üíé",
      "gameX": -110.03,
      "gameZ": -133.87,
      "realLat": 35.6974329,
      "realLng": 139.7849073
    },
    {
      "id": "equip_9927436651",
      "shopName": "Rocky Mountain Featherbed",
      "shopNameJa": "",
      "shopCategory": "clothes",
      "itemCategory": "equipment",
      "typeId": "armor",
      "name": "Armor",
      "nameJa": "Èò≤ÂÖ∑",
      "effect": "defense",
      "value": 0.2,
      "color": "#4169E1",
      "icon": "üõ°Ô∏è",
      "gameX": 92.44,
      "gameZ": 195.4,
      "realLat": 35.6949897,
      "realLng": 139.7872566
    },
    {
      "id": "equip_8928818264",
      "shopName": "Sex Pot Tokyo",
      "shopNameJa": "",
      "shopCategory": "clothes",
      "itemCategory": "equipment",
      "typeId": "hat",
      "name": "Hat",
      "nameJa": "Â∏ΩÂ≠ê",
      "effect": "defense",
      "value": 0.1,
      "color": "#DDA0DD",
      "icon": "üé©",
      "gameX": -108.71,
      "gameZ": -532.93,
      "realLat": 35.7003939,
      "realLng": 139.7849226
    },
    {
      "id": "equip_5641940332",
      "shopName": "„Åç„ÇÇ„ÅÆ ÂíåÈÅäÊàø",
      "shopNameJa": "",
      "shopCategory": "clothes",
      "itemCategory": "equipment",
      "typeId": "armor",
      "name": "Armor",
      "nameJa": "Èò≤ÂÖ∑",
      "effect": "defense",
      "value": 0.2,
      "color": "#4169E1",
      "icon": "üõ°Ô∏è",
      "gameX": -252.0,
      "gameZ": -166.08,
      "realLat": 35.6976719,
      "realLng": 139.78326
    },
    {
      "id": "equip_5681220060",
      "shopName": "„Åè„Åô„Çä„ÅÆ„ÅÑ„Åó„ÅÑ",
      "shopNameJa": "",
      "shopCategory": "pharmacy",
      "itemCategory": "equipment",
      "typeId": "medicine",
      "name": "Medicine",
      "nameJa": "Ëñ¨",
      "effect": "recoveryCooldown",
      "value": -0.15,
      "color": "#98FB98",
      "icon": "üíä",
      "gameX": -498.47,
      "gameZ": -239.36,
      "realLat": 35.6982156,
      "realLng": 139.7804001
    },
    {
      "id": "equip_4989869694",
      "shopName": "„Åï„Åè„ÇâËñ¨Â±Ä",
      "shopNameJa": "„Åï„Åè„ÇâËñ¨Â±Ä",
      "shopCategory": "pharmacy",
      "itemCategory": "equipment",
      "typeId": "medicine",
      "name": "Medicine",
      "nameJa": "Ëñ¨",
      "effect": "recoveryCooldown",
      "value": -0.15,
      "color": "#98FB98",
      "icon": "üíä",
      "gameX": -271.21,
      "gameZ": 146.06,
      "realLat": 35.6953558,
      "realLng": 139.783037
    },
    {
      "id": "equip_5563887725",
      "shopName": "„ÇÜ„ÅÜ„ÅæËñ¨Â±Ä",
      "shopNameJa": "",
      "shopCategory": "pharmacy",
      "itemCategory": "equipment",
      "typeId": "medicine",
      "name": "Medicine",
      "nameJa": "Ëñ¨",
      "effect": "recoveryCooldown",
      "value": -0.15,
      "color": "#98FB98",
      "icon": "üíä",
      "gameX": -449.32,
      "gameZ": -498.68,
      "realLat": 35.7001398,
      "realLng": 139.7809704
    },
    {
      "id": "equip_5708670786",
      "shopName": "„Ç¢„É´„Éë„Ç§„É≥„Éô„É´",
      "shopNameJa": "",
      "shopCategory": "sports",
      "itemCategory": "equipment",
      "typeId": "weapon",
      "name": "Weapon",
      "nameJa": "Ê≠¶Âô®",
      "effect": "attack",
      "value": 0.2,
      "color": "#DC143C",
      "icon": "‚öîÔ∏è",
      "gameX": -433.0,
      "gameZ": -399.48,
      "realLat": 35.6994037,
      "realLng": 139.7811598
    },
    {
      "id": "equip_3929902771",
      "shopName": "„Ç¢„É¥„Çß„É≠",
      "shopNameJa": "",
      "shopCategory": "bicycle",
      "itemCategory": "equipment",
      "typeId": "bicycle",
      "name": "Bicycle",
      "nameJa": "Ëá™Ëª¢Ëªä",
      "effect": "groundSpeed",
      "value": 0.3,
      "color": "#FF6347",
      "icon": "üö≤",
      "gameX": -182.37,
      "gameZ": 580.04,
      "realLat": 35.6921357,
      "realLng": 139.7840679
    },
    {
      "id": "equip_5174556108",
      "shopName": "„Ç≥„Ç≥„Ç´„É©„Éï„Ç°„Ç§„É≥",
      "shopNameJa": "„Ç≥„Ç≥„Ç´„É©„Éï„Ç°„Ç§„É≥",
      "shopCategory": "pharmacy",
      "itemCategory": "equipment",
      "typeId": "medicine",
      "name": "Medicine",
      "nameJa": "Ëñ¨",
      "effect": "recoveryCooldown",
      "value": -0.15,
      "color": "#98FB98",
      "icon": "üíä",
      "gameX": -2.25,
      "gameZ": -164.41,
      "realLat": 35.6976595,
      "realLng": 139.7861579
    },
    {
      "id": "equip_5573770416",
      "shopName": "„Ç≥„Éº„Çª„Ç§ÊµÖËçâÊ©ãËñ¨Â±Ä",
      "shopNameJa": "",
      "shopCategory": "pharmacy",
      "itemCategory": "equipment",
      "typeId": "medicine",
      "name": "Medicine",
      "nameJa": "Ëñ¨",
      "effect": "recoveryCooldown",
      "value": -0.15,
      "color": "#98FB98",
      "icon": "üíä",
      "gameX": -233.2,
      "gameZ": -267.7,
      "realLat": 35.6984259,
      "realLng": 139.7834781
    },
    {
      "id": "equip_2283944051",
      "shopName": "„Çµ„Ç´„Çº„É≥",
      "shopNameJa": "",
      "shopCategory": "clothes",
      "itemCategory": "equipment",
      "typeId": "hat",
      "name": "Hat",
      "nameJa": "Â∏ΩÂ≠ê",
      "effect": "defense",
      "value": 0.1,
      "color": "#DDA0DD",
      "icon": "üé©",
      "gameX": -276.17,
      "gameZ": 396.17,
      "realLat": 35.6935,
      "realLng": 139.7829795
    },
    {
      "id": "equip_5573770413",
      "shopName": "„Ç∏„É•„Ç®„É™„ÉºÁü≥Ê¥•",
      "shopNameJa": "",
      "shopCategory": "jewelry",
      "itemCategory": "gem",
      "typeId": "opal",
      "name": "Opal",
      "nameJa": "„Ç™„Éë„Éº„É´",
      "effect": "magnetism",
      "value": 0.2,
      "color": "#A8C3BC",
      "icon": "üíé",
      "gameX": -245.43,
      "gameZ": -269.13,
      "realLat": 35.6984365,
      "realLng": 139.7833362
    },
    {
      "id": "equip_4992239601",
      "shopName": "„Çª„Ç§„ÉØ„ÅÆÁôΩË°£",
      "shopNameJa": "",
      "shopCategory": "clothes",
      "itemCategory": "equipment",
      "typeId": "armor",
      "name": "Armor",
      "nameJa": "Èò≤ÂÖ∑",
      "effect": "defense",
      "value": 0.2,
      "color": "#4169E1",
      "icon": "üõ°Ô∏è",
      "gameX": -132.35,
      "gameZ": 235.15,
      "realLat": 35.6946948,
      "realLng": 139.7846483
    },
    {
      "id": "equip_5173073239",
      "shopName": "„Çª„Éî„Ç¢Ëñ¨Â±Ä",
      "shopNameJa": "",
      "shopCategory": "pharmacy",
      "itemCategory": "equipment",
      "typeId": "medicine",
      "name": "Medicine",
      "nameJa": "Ëñ¨",
      "effect": "recoveryCooldown",
      "value": -0.15,
      "color": "#98FB98",
      "icon": "üíä",
      "gameX": -116.78,
      "gameZ": -287.7,
      "realLat": 35.6985743,
      "realLng": 139.7848289
    },
    {
      "id": "equip_5173139158",
      "shopName": "„Éà„É¨„Ç∏„É£„Éº„Çª„É¨„ÇØ„Éà",
      "shopNameJa": "",
      "shopCategory": "clothes",
      "itemCategory": "equipment",
      "typeId": "clothes",
      "name": "Clothes",
      "nameJa": "Êúç",
      "effect": "defense",
      "value": 0.15,
      "color": "#9370DB",
      "icon": "üëï",
      "gameX": -14.55,
      "gameZ": -133.8,
      "realLat": 35.6974324,
      "realLng": 139.7860151
    },
    {
      "id": "equip_7057652334",
      "shopName": "„Éë„É≥„Éâ„É©„Éª„Éé„Éª„Éè„Ç≥„Éã„ÉØ",
      "shopNameJa": "",
      "shopCategory": "houseware",
      "itemCategory": "equipment",
      "typeId": "cookware",
      "name": "Cookware",
      "nameJa": "ÊñôÁêÜÈÅìÂÖ∑",
      "effect": "foodBuffBoost",
      "value": 0.2,
      "color": "#FFA07A",
      "icon": "üç≥",
      "gameX": -91.59,
      "gameZ": -494.37,
      "realLat": 35.7001078,
      "realLng": 139.7851212
    },
    {
      "id": "equip_5550478423",
      "shopName": "„Éì„ÉÉ„Ç∞„Éê„É≥",
      "shopNameJa": "",
      "shopCategory": "clothes",
      "itemCategory": "equipment",
      "typeId": "hat",
      "name": "Hat",
      "nameJa": "Â∏ΩÂ≠ê",
      "effect": "defense",
      "value": 0.1,
      "color": "#DDA0DD",
      "icon": "üé©",
      "gameX": -239.49,
      "gameZ": -163.44,
      "realLat": 35.6976523,
      "realLng": 139.7834051
    },
    {
      "id": "equip_5173028901",
      "shopName": "„Éï„ÇØ„É§„Éá„É≥„Ç≠",
      "shopNameJa": "",
      "shopCategory": "electronics",
      "itemCategory": "equipment",
      "typeId": "magnet",
      "name": "Magnet",
      "nameJa": "Á£ÅÁü≥",
      "effect": "magnetism",
      "value": 0.3,
      "color": "#C0C0C0",
      "icon": "üß≤",
      "gameX": -130.83,
      "gameZ": -423.47,
      "realLat": 35.6995817,
      "realLng": 139.7846659
    },
    {
      "id": "equip_4989869693",
      "shopName": "„Éó„É©„Ç∂Ëñ¨Â±Ä",
      "shopNameJa": "",
      "shopCategory": "pharmacy",
      "itemCategory": "equipment",
      "typeId": "medicine",
      "name": "Medicine",
      "nameJa": "Ëñ¨",
      "effect": "recoveryCooldown",
      "value": -0.15,
      "color": "#98FB98",
      "icon": "üíä",
      "gameX": -276.73,
      "gameZ": 143.84,
      "realLat": 35.6953723,
      "realLng": 139.782973
    },
    {
      "id": "equip_5593530148",
      "shopName": "„Éû„É´„É¶„Ç¶ÈõªÊ©ü",
      "shopNameJa": "",
      "shopCategory": "electronics",
      "itemCategory": "equipment",
      "typeId": "magnet",
      "name": "Magnet",
      "nameJa": "Á£ÅÁü≥",
      "effect": "magnetism",
      "value": 0.3,
      "color": "#C0C0C0",
      "icon": "üß≤",
      "gameX": -518.48,
      "gameZ": -334.75,
      "realLat": 35.6989234,
      "realLng": 139.7801679
    },
    {
      "id": "equip_9768872812",
      "shopName": "Â¢óÁî∞Êú®Ë£Ω",
      "shopNameJa": "",
      "shopCategory": "gift",
      "itemCategory": "equipment",
      "typeId": "flag",
      "name": "Flag",
      "nameJa": "Êóó",
      "effect": "allStats",
      "value": 0.02,
      "color": "#FF4500",
      "icon": "üö©",
      "gameX": -70.06,
      "gameZ": -202.62,
      "realLat": 35.697943,
      "realLng": 139.7853711
    },
    {
      "id": "equip_4989869692",
      "shopName": "Êó•Êú¨Ë™øÂâ§",
      "shopNameJa": "Êó•Êú¨Ë™øÂâ§",
      "shopCategory": "pharmacy",
      "itemCategory": "equipment",
      "typeId": "medicine",
      "name": "Medicine",
      "nameJa": "Ëñ¨",
      "effect": "recoveryCooldown",
      "value": -0.15,
      "color": "#98FB98",
      "icon": "üíä",
      "gameX": -286.45,
      "gameZ": 143.06,
      "realLat": 35.6953781,
      "realLng": 139.7828602
    },
    {
      "id": "equip_5642875283",
      "shopName": "Êù±‰∫¨„É™„ÉÉ„ÉÅÊ†™Âºè‰ºöÁ§æ",
      "shopNameJa": "",
      "shopCategory": "clothes",
      "itemCategory": "equipment",
      "typeId": "clothes",
      "name": "Clothes",
      "nameJa": "Êúç",
      "effect": "defense",
      "value": 0.15,
      "color": "#9370DB",
      "icon": "üëï",
      "gameX": -206.47,
      "gameZ": -189.44,
      "realLat": 35.6978452,
      "realLng": 139.7837882
    },
    {
      "id": "equip_5158268493",
      "shopName": "Êù±ÂÆùÊúçÈ£æ",
      "shopNameJa": "",
      "shopCategory": "clothes",
      "itemCategory": "equipment",
      "typeId": "clothes",
      "name": "Clothes",
      "nameJa": "Êúç",
      "effect": "defense",
      "value": 0.15,
      "color": "#9370DB",
      "icon": "üëï",
      "gameX": -166.2,
      "gameZ": -338.86,
      "realLat": 35.6989539,
      "realLng": 139.7842555
    },
    {
      "id": "equip_11388921086",
      "shopName": "Êù±Êó•Êú¨Ê©ã„Éâ„É©„ÉÉ„Ç∞",
      "shopNameJa": "",
      "shopCategory": "chemist",
      "itemCategory": "equipment",
      "typeId": "medicine",
      "name": "Medicine",
      "nameJa": "Ëñ¨",
      "effect": "recoveryCooldown",
      "value": -0.15,
      "color": "#98FB98",
      "icon": "üíä",
      "gameX": -89.87,
      "gameZ": 551.32,
      "realLat": 35.6923488,
      "realLng": 139.7851412
    },
    {
      "id": "equip_9762732913",
      "shopName": "ÊùæÊ†Ñ",
      "shopNameJa": "",
      "shopCategory": "clothes",
      "itemCategory": "equipment",
      "typeId": "hat",
      "name": "Hat",
      "nameJa": "Â∏ΩÂ≠ê",
      "effect": "defense",
      "value": 0.1,
      "color": "#DDA0DD",
      "icon": "üé©",
      "gameX": -98.38,
      "gameZ": -149.02,
      "realLat": 35.6975453,
      "realLng": 139.7850424
    },
    {
      "id": "equip_5573770384",
      "shopName": "ÊùæÁ´π„Çø„Ç™„É´Â∫ó",
      "shopNameJa": "",
      "shopCategory": "houseware",
      "itemCategory": "equipment",
      "typeId": "cookware",
      "name": "Cookware",
      "nameJa": "ÊñôÁêÜÈÅìÂÖ∑",
      "effect": "foodBuffBoost",
      "value": 0.2,
      "color": "#FFA07A",
      "icon": "üç≥",
      "gameX": -253.48,
      "gameZ": -108.47,
      "realLat": 35.6972444,
      "realLng": 139.7832428
    },
    {
      "id": "equip_5593558632",
      "shopName": "Êü≥Âåó„Åß„Çì„Åç",
      "shopNameJa": "",
      "shopCategory": "electronics",
      "itemCategory": "equipment",
      "typeId": "magnet",
      "name": "Magnet",
      "nameJa": "Á£ÅÁü≥",
      "effect": "magnetism",
      "value": 0.3,
      "color": "#C0C0C0",
      "icon": "üß≤",
      "gameX": -440.51,
      "gameZ": -375.54,
      "realLat": 35.6992261,
      "realLng": 139.7810726
    },
    {
      "id": "equip_5913863389",
      "shopName": "Ê∞¥ÈáéÈûÑÂ∫ó",
      "shopNameJa": "",
      "shopCategory": "bag",
      "itemCategory": "equipment",
      "typeId": "bag",
      "name": "Bag",
      "nameJa": "„Éê„ÉÉ„Ç∞",
      "effect": "slotExpand",
      "value": 2,
      "color": "#8B4513",
      "icon": "üéí",
      "gameX": -412.12,
      "gameZ": -207.02,
      "realLat": 35.6979757,
      "realLng": 139.781402
    },
    {
      "id": "equip_1590216019",
      "shopName": "ÊµÖËçâÊ©ãÁúºÈè°Â∫ó",
      "shopNameJa": "",
      "shopCategory": "optician",
      "itemCategory": "equipment",
      "typeId": "glasses",
      "name": "Glasses",
      "nameJa": "„É°„Ç¨„Éç",
      "effect": "detection",
      "value": 0.3,
      "color": "#87CEEB",
      "icon": "üëì",
      "gameX": -211.51,
      "gameZ": -348.17,
      "realLat": 35.699023,
      "realLng": 139.7837298
    },
    {
      "id": "equip_4992239588",
      "shopName": "ÁéâÊú®Ëñ¨Â±ÄÊú¨Â∫ó",
      "shopNameJa": "",
      "shopCategory": "pharmacy",
      "itemCategory": "equipment",
      "typeId": "medicine",
      "name": "Medicine",
      "nameJa": "Ëñ¨",
      "effect": "recoveryCooldown",
      "value": -0.15,
      "color": "#98FB98",
      "icon": "üíä",
      "gameX": -52.43,
      "gameZ": 256.06,
      "realLat": 35.6945396,
      "realLng": 139.7855756
    },
    {
      "id": "equip_2292261004",
      "shopName": "Á¥≥Â£´Êúç„Éê„É´„Ç≥„É≥",
      "shopNameJa": "",
      "shopCategory": "clothes",
      "itemCategory": "equipment",
      "typeId": "armor",
      "name": "Armor",
      "nameJa": "Èò≤ÂÖ∑",
      "effect": "defense",
      "value": 0.2,
      "color": "#4169E1",
      "icon": "üõ°Ô∏è",
      "gameX": -393.08,
      "gameZ": -142.91,
      "realLat": 35.6975,
      "realLng": 139.781623
    },
    {
      "id": "equip_5648830429",
      "shopName": "ËçâÊ∑±ÊôÇË®àÂ∫ó",
      "shopNameJa": "",
      "shopCategory": "watches",
      "itemCategory": "equipment",
      "typeId": "watch",
      "name": "Watch",
      "nameJa": "ÊôÇË®à",
      "effect": "buffDuration",
      "value": 0.2,
      "color": "#FFD700",
      "icon": "‚åö",
      "gameX": -489.19,
      "gameZ": -323.67,
      "realLat": 35.6988412,
      "realLng": 139.7805078
    },
    {
      "id": "equip_5173028906",
      "shopName": "ËèØÈõÖËãë",
      "shopNameJa": "",
      "shopCategory": "clothes",
      "itemCategory": "equipment",
      "typeId": "clothes",
      "name": "Clothes",
      "nameJa": "Êúç",
      "effect": "defense",
      "value": 0.15,
      "color": "#9370DB",
      "icon": "üëï",
      "gameX": -129.56,
      "gameZ": -428.68,
      "realLat": 35.6996204,
      "realLng": 139.7846807
    },
    {
      "id": "equip_5574882638",
      "shopName": "Ëñ¨„ÅÆÈÅîÁîüÂ†Ç",
      "shopNameJa": "",
      "shopCategory": "pharmacy",
      "itemCategory": "equipment",
      "typeId": "medicine",
      "name": "Medicine",
      "nameJa": "Ëñ¨",
      "effect": "recoveryCooldown",
      "value": -0.15,
      "color": "#98FB98",
      "icon": "üíä",
      "gameX": -494.27,
      "gameZ": 178.65,
      "realLat": 35.695114,
      "realLng": 139.7804488
    },
    {
      "id": "equip_5643018458",
      "shopName": "Ë™†ÂøÉÂ†Ç",
      "shopNameJa": "",
      "shopCategory": "pharmacy",
      "itemCategory": "equipment",
      "typeId": "medicine",
      "name": "Medicine",
      "nameJa": "Ëñ¨",
      "effect": "recoveryCooldown",
      "value": -0.15,
      "color": "#98FB98",
      "icon": "üíä",
      "gameX": -92.13,
      "gameZ": -265.29,
      "realLat": 35.698408,
      "realLng": 139.785115
    },
    {
      "id": "equip_5173128814",
      "shopName": "È£õË°õÈñÄ",
      "shopNameJa": "",
      "shopCategory": "variety_store",
      "itemCategory": "equipment",
      "typeId": "bag",
      "name": "Bag",
      "nameJa": "„Éê„ÉÉ„Ç∞",
      "effect": "slotExpand",
      "value": 2,
      "color": "#8B4513",
      "icon": "üéí",
      "gameX": -103.15,
      "gameZ": -133.0,
      "realLat": 35.6974264,
      "realLng": 139.7849871
    },
    {
      "id": "equip_7719090639",
      "shopName": "ÈªÑÊúàËàò",
      "shopNameJa": "",
      "shopCategory": "clothes",
      "itemCategory": "equipment",
      "typeId": "clothes",
      "name": "Clothes",
      "nameJa": "Êúç",
      "effect": "defense",
      "value": 0.15,
      "color": "#9370DB",
      "icon": "üëï",
      "gameX": -72.18,
      "gameZ": -290.11,
      "realLat": 35.6985922,
      "realLng": 139.7853465
    }
  ]
}